{"type":"FeatureCollection","features":[{"type":"Feature","properties":{"name":"Calgary International Airport","marker-color":"#000000","marker-size":"medium","marker-symbol":"circle-stroked","aircraftMovement":202497},"geometry":{"coordinates":[-114.01464449999962,51.121977164729344],"type":"Point"},"id":0},{"type":"Feature","properties":{"name":"Edmonton International Airport","marker-color":"#000000","marker-size":"medium","marker-symbol":"circle-stroked","aircraftMovement":108542},"geometry":{"coordinates":[-113.57036384657592,53.30696650907146],"type":"Point"},"id":1},{"type":"Feature","properties":{"name":"Fredericton International Airport","marker-color":"#000000","marker-size":"medium","marker-symbol":"circle-stroked","aircraftMovement":54455},"geometry":{"coordinates":[-66.53342072883532,45.87080182435378],"type":"Point"},"id":2},{"type":"Feature","properties":{"name":"Gander International Airport","marker-color":"#000000","marker-size":"medium","marker-symbol":"circle-stroked","aircraftMovement":29573},"geometry":{"coordinates":[-54.57616499999946,48.946762338059415],"type":"Point"},"id":3},{"type":"Feature","properties":{"name":"Halifax Stanfield International Airport","marker-color":"#000000","marker-size":"medium","marker-symbol":"circle-stroked","aircraftMovement":52318},"geometry":{"coordinates":[-63.51264822883451,44.8836484954447],"type":"Point"},"id":4},{"type":"Feature","properties":{"name":"Greater Moncton Roméo LeBlanc International Airport","marker-color":"#000000","marker-size":"medium","marker-symbol":"circle-stroked","aircraftMovement":95138},"geometry":{"coordinates":[-64.68351299999946,46.114158468812235],"type":"Point"},"id":5},{"type":"Feature","properties":{"name":"Montréal–Trudeau International Airport","marker-color":"#000000","marker-size":"medium","marker-symbol":"circle-stroked","aircraftMovement":201141},"geometry":{"coordinates":[-73.74519172883517,45.46442668827669],"type":"Point"},"id":6},{"type":"Feature","properties":{"name":"Ottawa Macdonald–Cartier International Airport","marker-color":"#000000","marker-size":"medium","marker-symbol":"circle-stroked","aircraftMovement":93374},"geometry":{"coordinates":[-75.66741799899505,45.32243480271973],"type":"Point"},"id":7},{"type":"Feature","properties":{"name":"Jean Lesage International Airport","marker-color":"#000000","marker-size":"medium","marker-symbol":"circle-stroked","aircraftMovement":117680},"geometry":{"coordinates":[-71.38357636637359,46.79559060204343],"type":"Point"},"id":8},{"type":"Feature","properties":{"name":"St. John's International Airport","marker-color":"#000000","marker-size":"medium","marker-symbol":"circle-stroked","aircraftMovement":31701},"geometry":{"coordinates":[-52.747995936506996,47.61579960828496],"type":"Point"},"id":9},{"type":"Feature","properties":{"name":"Toronto Pearson International Airport","marker-color":"#000000","marker-size":"medium","marker-symbol":"circle-stroked","aircraftMovement":380583},"geometry":{"coordinates":[-79.62179436619425,43.67936742185796],"type":"Point"},"id":10},{"type":"Feature","properties":{"name":"Vancouver International Airport","marker-color":"#000000","marker-size":"medium","marker-symbol":"circle-stroked","aircraftMovement":281911},"geometry":{"coordinates":[-123.18272657776026,49.194641736772326],"type":"Point"},"id":11},{"type":"Feature","properties":{"name":"James Armstrong Richardson International Airport","marker-color":"#000000","marker-size":"medium","marker-symbol":"circle-stroked","aircraftMovement":107692},"geometry":{"coordinates":[-97.23454145767235,49.903655955086606],"type":"Point"},"id":12}]}